City_ID,City_ID,City,Country,Date,Lat,Lng,Max Temp,Humidity,Cloudiness,Wind Speed,Description
0,0,Port Lincoln,AU,1667869642,-34.7333,135.8667,79.18,41,100,15.59,overcast clouds
1,1,Mataura,NZ,1667869642,-46.1927,168.8643,65.48,38,71,3.87,broken clouds
2,2,San Lorenzo,PY,1667869391,-25.3333,-57.5333,74.34,43,0,6.91,clear sky
3,3,Norman Wells,CA,1667869643,65.282,-126.8329,3.15,75,8,8.12,clear sky
4,4,Atagay,RU,1667869644,55.1033,99.3875,22.93,84,100,3.76,overcast clouds
5,5,Hermanus,ZA,1667869644,-34.4187,19.2345,59.23,87,13,6.91,few clouds
6,6,Kazachinskoye,RU,1667869644,57.6953,93.2761,22.28,96,95,4.12,overcast clouds
7,7,Vaini,TO,1667869645,-21.2,-175.2,75.7,75,20,12.24,light rain
8,8,Puerto Ayora,EC,1667869619,-0.7393,-90.3518,67.55,85,91,4.0,overcast clouds
9,9,Avarua,CK,1667869646,-21.2078,-159.775,77.05,65,75,6.91,broken clouds
10,10,Qaqortoq,GL,1667869646,60.7167,-46.0333,25.25,85,100,5.44,overcast clouds
11,11,Coyhaique,CL,1667869395,-45.5752,-72.0662,56.01,87,0,5.75,clear sky
12,12,Lamar,US,1667869647,33.6668,-95.5836,70.36,96,100,10.36,light rain
13,13,Ushuaia,AR,1667869647,-54.8,-68.3,56.86,54,75,17.27,broken clouds
14,14,Kruisfontein,ZA,1667869648,-34.0033,24.7314,56.61,84,93,5.35,overcast clouds
15,15,Bandarbeyla,SO,1667869648,9.4942,50.8122,77.41,76,2,3.91,clear sky
16,16,Henties Bay,,1667869649,-22.116,14.2845,61.38,90,2,4.25,clear sky
17,17,Ivanteyevka,RU,1667869649,55.9711,37.9208,37.35,95,100,8.41,overcast clouds
18,18,Cabo San Lucas,MX,1667869451,22.8909,-109.9124,78.1,68,20,11.5,few clouds
19,19,Ormara,PK,1667869650,25.2088,64.6357,78.12,63,0,3.44,clear sky
20,20,Jamestown,US,1667869651,42.097,-79.2353,46.02,64,0,9.22,clear sky
21,21,Gizo Government Station,SB,1667869651,-8.103,156.8419,84.04,72,88,9.22,light rain
22,22,Rikitea,PF,1667869652,-23.1203,-134.9692,73.65,92,100,18.95,light rain
23,23,Kapaa,US,1667869652,22.0752,-159.319,84.18,72,75,12.66,broken clouds
24,24,Luena,AO,1667869653,-11.7833,19.9167,63.68,99,100,3.31,light rain
25,25,Busselton,AU,1667869653,-33.65,115.3333,63.25,65,97,9.8,overcast clouds
26,26,Albany,US,1667869654,42.6001,-73.9662,51.64,51,5,11.12,clear sky
27,27,Paracatu,BR,1667869654,-17.2222,-46.8747,66.87,84,33,1.81,scattered clouds
28,28,Dwārka,IN,1667869654,22.2394,68.9678,77.22,61,0,8.05,clear sky
29,29,Touros,BR,1667869655,-5.1989,-35.4608,78.12,77,100,10.74,overcast clouds
30,30,Carnarvon,AU,1667869655,-24.8667,113.6333,69.44,58,0,13.94,clear sky
31,31,Tocopilla,CL,1667869656,-22.092,-70.1979,64.0,69,5,3.13,clear sky
32,32,Khovd,MN,1667869656,48.0056,91.6419,34.59,45,99,9.8,overcast clouds
33,33,Thompson,CA,1667869657,55.7435,-97.8558,-6.02,99,17,1.9,few clouds
34,34,Inhambane,MZ,1667869657,-23.865,35.3833,75.65,86,31,8.25,scattered clouds
35,35,Ratnagiri,IN,1667869555,16.9833,73.3,73.8,54,61,6.85,broken clouds
36,36,Saint George,US,1667869552,37.1041,-113.5841,66.94,35,0,13.8,clear sky
37,37,Yellowknife,CA,1667869658,62.456,-114.3525,3.36,96,100,1.14,overcast clouds
38,38,Bluff,NZ,1667869659,-46.6,168.3333,65.8,67,87,6.85,overcast clouds
39,39,Mamakan,RU,1667869659,57.8161,114.0028,25.16,86,100,6.17,overcast clouds
40,40,Turukhansk,RU,1667869660,65.8167,87.9833,17.8,96,100,11.52,light snow
41,41,Gdańsk,PL,1667869660,54.3521,18.6464,51.08,95,0,8.05,clear sky
42,42,Ixtapa,MX,1667869661,20.7,-105.2,79.83,69,0,5.75,clear sky
43,43,Castro,BR,1667869661,-24.7911,-50.0119,50.13,95,0,4.88,clear sky
44,44,Denpasar,ID,1667869662,-8.65,115.2167,82.06,83,20,2.3,few clouds
45,45,Kidal,ML,1667869662,18.4411,1.4078,72.73,16,73,10.42,broken clouds
46,46,Pisco,PE,1667869662,-13.7,-76.2167,62.65,82,0,10.36,clear sky
47,47,Kapit,MY,1667869693,2.0167,112.9333,78.01,92,90,0.6,overcast clouds
48,48,Guerrero Negro,MX,1667869693,27.9769,-114.0611,66.38,73,66,13.15,broken clouds
49,49,Ucluelet,CA,1667869694,48.9329,-125.5528,40.08,78,59,14.79,broken clouds
50,50,Barcelos,PT,1667869694,41.5388,-8.6151,62.74,93,88,11.48,overcast clouds
51,51,Rybnoye,RU,1667869695,54.7256,39.5119,37.06,88,100,9.62,overcast clouds
52,52,Mar Del Plata,AR,1667869696,-38.0023,-57.5575,63.09,88,0,14.0,clear sky
53,53,Vacaria,BR,1667869403,-28.5122,-50.9339,45.25,97,1,7.56,clear sky
54,54,São José Da Coroa Grande,BR,1667869696,-8.8978,-35.1478,76.06,81,17,2.19,few clouds
55,55,Fortuna,US,1667869697,40.5982,-124.1573,47.66,94,75,13.8,broken clouds
56,56,Husavik,IS,1667869697,66.0449,-17.3389,39.72,90,100,10.16,overcast clouds
57,57,Butaritari,KI,1667869698,3.0707,172.7902,80.37,75,29,6.4,scattered clouds
58,58,Illapel,CL,1667869699,-31.6308,-71.1653,62.01,77,56,2.71,broken clouds
59,59,Saskylakh,RU,1667869699,71.9167,114.0833,-23.8,99,43,5.5,scattered clouds
60,60,Marystown,CA,1667869640,47.1666,-55.1483,56.16,94,100,26.75,light rain
61,61,Sola,VU,1667869700,-13.8833,167.55,78.57,83,100,15.03,overcast clouds
62,62,Alindao,CF,1667869700,5.0267,21.2088,70.72,95,100,2.95,overcast clouds
63,63,Beatrice,US,1667869701,40.2681,-96.747,46.27,42,0,5.75,clear sky
64,64,George Town,MY,1667869414,5.4112,100.3354,84.24,82,20,3.44,few clouds
65,65,San Cristobal,VE,1667869702,7.7669,-72.225,71.78,96,99,2.17,overcast clouds
66,66,Raudeberg,NO,1667869702,61.9875,5.1352,45.27,67,29,10.6,scattered clouds
67,67,Techiman,GH,1667869703,7.5862,-1.9414,72.7,64,97,0.31,overcast clouds
68,68,Birsk,RU,1667869703,55.4211,55.5428,27.63,94,100,6.87,overcast clouds
69,69,Provideniya,RU,1667869704,64.3833,-173.3,32.36,74,100,22.37,snow
70,70,Qaanaaq,GL,1667869704,77.484,-69.3632,-0.65,97,100,4.99,overcast clouds
71,71,Atar,MR,1667869705,20.5169,-13.0499,79.07,17,96,3.69,overcast clouds
72,72,Hithadhoo,MV,1667869705,-0.6,73.0833,81.95,76,13,18.81,few clouds
73,73,Evensk,RU,1667869706,61.95,159.2333,23.29,70,100,7.31,overcast clouds
74,74,Hohhot,CN,1667869706,40.8106,111.6522,40.08,33,45,2.48,scattered clouds
75,75,Barrow,US,1667869706,71.2906,-156.7887,24.82,80,100,23.02,overcast clouds
76,76,Mandalgovi,MN,1667869689,45.7625,106.2708,33.13,36,99,8.75,overcast clouds
77,77,Ostrovnoy,RU,1667869707,68.0531,39.5131,27.52,94,54,5.03,broken clouds
78,78,Naryan-Mar,RU,1667869708,67.6713,53.087,32.77,98,100,11.16,light snow
79,79,Launceston,AU,1667869708,-41.45,147.1667,76.6,40,14,10.36,few clouds
80,80,Waliso,ET,1667869709,8.5333,37.9833,53.8,52,63,7.96,broken clouds
81,81,Lata,PT,1667869709,40.1629,-8.3327,60.93,95,99,6.76,overcast clouds
82,82,Souillac,MU,1667869710,-20.5167,57.5167,72.05,81,67,8.66,broken clouds
83,83,Hilo,US,1667869710,19.7297,-155.09,82.13,76,40,11.5,scattered clouds
84,84,Logan,US,1667869548,41.7355,-111.8344,52.14,83,100,14.97,overcast clouds
85,85,Humberto De Campos,BR,1667869711,-2.5983,-43.4611,75.16,94,98,5.44,overcast clouds
86,86,Bengkulu,ID,1667869712,-3.8004,102.2655,75.25,89,100,2.51,overcast clouds
87,87,Hobart,AU,1667869488,-42.8794,147.3294,77.22,64,0,12.66,clear sky
88,88,Jiblah,YE,1667869712,13.9216,44.1467,58.55,79,0,2.73,clear sky
89,89,Lüderitz,,1667869713,-26.6481,15.1594,61.0,89,81,9.42,broken clouds
90,90,Andenes,NO,1667869713,69.3143,16.1194,40.98,70,20,18.41,few clouds
91,91,Tripoli,LY,1667869714,32.8752,13.1875,67.17,60,0,1.77,clear sky
92,92,Clyde River,CA,1667869625,70.4692,-68.5914,4.78,84,100,7.02,overcast clouds
93,93,Takoradze,GH,1667869745,4.8845,-1.7554,78.26,85,100,5.55,light rain
94,94,Tasiilaq,GL,1667869745,65.6145,-37.6368,30.07,97,100,5.3,light snow
95,95,Samarai,PG,1667869746,-10.6167,150.6667,84.15,69,33,7.7,scattered clouds
96,96,Mitú,CO,1667869746,1.1983,-70.1733,76.37,83,100,0.22,light rain
97,97,Ancud,CL,1667869747,-41.8697,-73.8203,53.69,95,99,3.0,overcast clouds
98,98,Valparaíso,CL,1667869747,-33.0393,-71.6273,56.84,82,100,4.61,overcast clouds
99,99,Yulara,AU,1667869748,-25.2406,130.9889,92.34,21,89,16.78,overcast clouds
100,100,Haines Junction,CA,1667869748,60.7522,-137.5108,4.17,92,90,0.89,overcast clouds
101,101,Atuona,PF,1667869749,-9.8,-139.0333,77.16,68,100,14.18,overcast clouds
102,102,Los Llanos De Aridane,ES,1667869749,28.6585,-17.9182,65.95,45,0,8.05,clear sky
103,103,Arraial Do Cabo,BR,1667869750,-22.9661,-42.0278,68.38,77,100,4.18,overcast clouds
104,104,Antofagasta,CL,1667869751,-23.65,-70.4,60.08,79,46,3.31,scattered clouds
105,105,Port Elizabeth,ZA,1667869509,-33.918,25.5701,62.31,90,100,7.0,overcast clouds
106,106,Kashiba,JP,1667869751,34.5415,135.6988,65.01,63,0,4.47,clear sky
107,107,Longyearbyen,SJ,1667869752,78.2186,15.6401,24.64,74,75,9.22,broken clouds
108,108,Margate,GB,1667869752,51.3813,1.3862,59.31,81,100,8.99,overcast clouds
109,109,Assiut,EG,1667869753,27.181,31.1837,65.12,54,100,6.15,overcast clouds
110,110,Naze,JP,1667869753,28.3667,129.4833,69.08,59,2,10.16,clear sky
111,111,Tomatlán,MX,1667869754,19.9333,-105.25,72.79,90,0,2.91,clear sky
112,112,Bethel,US,1667869754,41.3712,-73.414,66.76,22,0,9.22,clear sky
113,113,Muros,ES,1667869755,42.7762,-9.0603,58.68,83,100,17.85,overcast clouds
114,114,Vostok,RU,1667869755,46.4856,135.8833,33.49,62,28,5.86,scattered clouds
115,115,Havre-St-Pierre,CA,1667869756,50.2334,-63.5986,44.33,69,15,26.4,few clouds
116,116,Manicoré,BR,1667869756,-5.8092,-61.3003,74.34,94,64,2.39,broken clouds
117,117,Snåase,NO,1667869757,64.2457,12.3778,33.21,86,15,3.78,few clouds
118,118,Ribeira Grande,PT,1667869757,38.5167,-28.7,63.77,70,100,4.0,overcast clouds
119,119,Lucapa,AO,1667869458,-8.4192,20.7447,66.34,99,100,2.1,heavy intensity rain
120,120,Chui,UY,1667869758,-33.6971,-53.4616,58.69,83,11,9.44,few clouds
121,121,Seydişehir,TR,1667869759,37.4193,31.8453,45.39,79,47,4.65,scattered clouds
122,122,Hasaki,JP,1667869759,35.7333,140.8333,66.29,54,0,14.03,clear sky
123,123,Saint Paul Harbor,US,1667869760,57.79,-152.4072,36.91,87,100,17.27,light rain
124,124,Hamilton,US,1667869585,39.1834,-84.5333,58.05,35,75,10.36,broken clouds
125,125,Saint-Philippe,RE,1667869760,-21.3585,55.7679,71.19,76,37,6.8,scattered clouds
126,126,Yei,SS,1667869761,4.095,30.6779,65.73,95,100,0.76,light rain
127,127,Anadyr,RU,1667869761,64.75,177.4833,27.1,92,75,15.66,mist
128,128,Lompoc,US,1667869762,34.6391,-120.4579,57.78,80,0,4.61,clear sky
129,129,Myanaung,MM,1667869762,18.2833,95.3167,71.67,82,80,6.11,broken clouds
130,130,New Norfolk,AU,1667869763,-42.7826,147.0587,76.87,37,20,1.01,few clouds
131,131,Cape Town,ZA,1667869503,-33.9258,18.4232,61.12,87,100,2.3,overcast clouds
132,132,Lebu,CL,1667869761,-37.6167,-73.65,53.76,84,100,9.55,overcast clouds
133,133,Cidreira,BR,1667869765,-30.1811,-50.2056,61.65,82,12,11.79,few clouds
134,134,Port Hedland,AU,1667869765,-20.3167,118.5667,78.85,38,0,14.97,clear sky
135,135,Punta Arenas,CL,1667869766,-53.15,-70.9167,53.71,71,0,17.27,clear sky
136,136,Saint Anthony,US,1667869766,45.0205,-93.218,35.82,66,0,6.91,clear sky
137,137,Nikolskoye,RU,1667869766,59.7035,30.7861,39.09,93,100,8.81,overcast clouds
138,138,Australind,AU,1667869767,-33.2667,115.7167,61.52,73,100,10.63,overcast clouds
139,139,Córdoba,AR,1667869649,-31.4135,-64.1811,73.76,39,0,5.75,clear sky
140,140,Sirte,LY,1667869768,31.2089,16.5887,69.37,67,14,7.14,few clouds
141,141,Antalaha,MG,1667869798,-14.9003,50.2788,67.8,86,31,5.3,scattered clouds
142,142,Bobo-Dioulasso,BF,1667869799,11.1771,-4.2979,71.69,26,16,4.16,few clouds
143,143,Simacota,CO,1667869799,6.4429,-73.3369,66.67,97,86,0.31,overcast clouds
144,144,Bredasdorp,ZA,1667869775,-34.5322,20.0403,56.57,92,88,5.82,overcast clouds
145,145,Faanui,PF,1667869800,-16.4833,-151.75,78.85,73,21,6.64,few clouds
146,146,Palekastro,GR,1667869800,35.2,26.25,64.62,75,0,26.55,clear sky
147,147,Vaitape,PF,1667869801,-16.5167,-151.75,78.82,73,21,6.69,few clouds
148,148,Dikson,RU,1667869802,73.5069,80.5464,5.56,95,100,7.94,overcast clouds
149,149,Verāval,IN,1667869803,20.9,70.3667,75.61,63,0,10.74,clear sky
150,150,Hambantota,LK,1667869803,6.1241,81.1185,77.79,82,100,2.91,heavy intensity rain
151,151,Chhor,PK,1667869804,25.5167,69.7667,71.11,41,1,5.19,clear sky
152,152,Pevek,RU,1667869804,69.7008,170.3133,1.42,95,15,1.3,few clouds
153,153,Ponta Do Sol,PT,1667869805,32.6667,-17.1,68.72,86,94,3.76,overcast clouds
154,154,Havelock,US,1667869806,34.8791,-76.9013,71.94,88,40,1.01,scattered clouds
155,155,Daru,PG,1667869807,-9.0763,143.2092,79.39,86,100,4.41,overcast clouds
156,156,Tiksi,RU,1667869807,71.6872,128.8694,0.81,91,100,17.83,overcast clouds
157,157,Namatanai,PG,1667869808,-3.6667,152.4333,83.77,72,98,5.39,light rain
158,158,Ambulu,ID,1667869809,-8.345,113.6058,81.14,79,94,0.92,overcast clouds
159,159,Puerto Escondido,MX,1667869809,15.85,-97.0667,83.23,57,40,3.44,scattered clouds
160,160,Wooster,US,1667869810,40.8051,-81.9351,49.28,55,0,8.05,clear sky
161,161,Troitskoye,RU,1667869811,52.9821,84.6757,28.69,77,94,4.43,overcast clouds
162,162,Dunedin,NZ,1667869811,-45.8742,170.5036,59.31,71,83,10.83,broken clouds
163,163,Ayr,GB,1667869812,55.4627,-4.6339,55.51,82,20,23.02,few clouds
164,164,Oistins,BB,1667869813,13.0667,-59.5333,82.49,78,75,21.85,broken clouds
165,165,Tevriz,RU,1667869813,57.509,72.4042,27.19,87,100,2.3,overcast clouds
166,166,Codrington,AU,1667869814,-38.2667,141.9667,73.92,65,6,10.02,clear sky
167,167,Aklavik,CA,1667869814,68.2191,-135.0107,-0.45,87,100,9.31,overcast clouds
168,168,Hollins,US,1667869815,37.3413,-79.9431,64.62,70,0,4.25,clear sky
169,169,Padang,ID,1667869816,-0.9492,100.3543,77.05,80,100,2.08,moderate rain
170,170,Thabazimbi,ZA,1667869816,-24.5917,27.4116,64.2,93,100,4.94,heavy intensity rain
171,171,Gloucester,GB,1667869810,51.8657,-2.2431,59.76,86,100,15.99,heavy intensity rain
172,172,Bad Liebenwerda,DE,1667869817,51.5167,13.4,51.62,82,84,9.04,broken clouds
173,173,Shahrud,IR,1667869817,36.4182,54.9763,37.89,74,20,5.86,few clouds
174,174,Trelew,AR,1667869818,-43.249,-65.3051,65.84,51,100,4.34,overcast clouds
175,175,Barra De Tecoanapa,MX,1667869819,16.5167,-98.75,80.55,84,16,6.35,few clouds
176,176,Aliwal North,ZA,1667869819,-30.6937,26.7114,59.34,76,100,3.09,overcast clouds
177,177,Flinders,AU,1667869820,-34.5833,150.8552,74.17,58,51,5.01,broken clouds
178,178,Caucaia,BR,1667869820,-3.7361,-38.6531,80.04,74,23,6.29,few clouds
179,179,Adwa,ET,1667869821,14.1646,38.8955,59.05,65,9,4.23,clear sky
180,180,Kachug,RU,1667869821,53.9606,105.8817,24.08,86,96,4.47,overcast clouds
181,181,Kropotkin,RU,1667869822,45.4375,40.5756,39.38,77,100,14.63,overcast clouds
182,182,Beder,DK,1667869823,56.0602,10.2118,55.15,93,100,13.51,overcast clouds
183,183,Chokurdakh,RU,1667869823,70.6333,147.9167,-11.76,96,63,11.39,broken clouds
184,184,Jumla,NP,1667869824,29.2747,82.1838,41.2,50,0,4.72,clear sky
185,185,Port Alfred,ZA,1667869855,-33.5906,26.891,64.18,88,100,5.99,overcast clouds
186,186,Zhangaözen,KZ,1667869855,43.3,52.8,32.85,75,1,5.41,clear sky
187,187,Dolores,AR,1667869856,-36.3132,-57.6792,55.71,92,0,8.77,light rain
188,188,Lagoa,PT,1667869856,39.05,-27.9833,63.09,67,100,18.34,overcast clouds
189,189,Olafsvik,IS,1667869857,64.8945,-23.7142,42.33,75,100,15.95,overcast clouds
190,190,Burriana,ES,1667869858,39.889,-0.085,60.67,88,17,4.23,few clouds
191,191,Cherskiy,RU,1667869858,68.75,161.3,-5.84,98,18,2.55,few clouds
192,192,Solnechnyy,RU,1667869858,50.7214,136.6319,30.27,51,100,2.48,overcast clouds
193,193,Kashgar,CN,1667869859,39.4547,75.9797,42.73,48,95,3.04,overcast clouds
194,194,Palana,RU,1667869859,59.1167,159.9667,22.15,89,100,9.93,overcast clouds
195,195,Todos Santos,MX,1667869860,23.45,-110.2167,73.04,74,2,6.87,clear sky
196,196,Balclutha,NZ,1667869684,-46.2339,169.75,59.43,63,98,5.61,overcast clouds
197,197,Boende,CD,1667869861,-0.2167,20.8667,70.12,98,100,2.39,overcast clouds
198,198,Muisne,EC,1667869861,0.6,-80.0333,74.17,77,75,5.79,broken clouds
199,199,San Quintín,MX,1667869609,30.4833,-115.95,64.65,83,0,11.63,clear sky
200,200,Killybegs,IE,1667869862,54.6333,-8.45,49.69,84,44,20.51,scattered clouds
201,201,Baykit,RU,1667869863,61.67,96.37,8.64,99,89,3.02,overcast clouds
202,202,Gura Teghii,RO,1667869863,45.4833,26.4167,49.68,82,100,4.36,overcast clouds
203,203,Pavlovka,RU,1667869864,52.6897,47.1405,29.8,91,76,6.69,broken clouds
204,204,Torbay,CA,1667869864,47.6666,-52.7314,60.76,97,100,26.46,light intensity drizzle
205,205,Dicabisagan,PH,1667869865,17.0818,122.4157,80.01,85,93,4.83,heavy intensity rain
206,206,Narsaq,GL,1667869865,60.9167,-46.05,30.42,77,100,6.62,overcast clouds
207,207,Marawi,PH,1667869866,7.9986,124.2928,79.3,71,28,1.52,scattered clouds
208,208,Glens Falls,US,1667869823,43.3095,-73.644,52.52,53,75,4.0,broken clouds
209,209,Yangi Marg`Ilon,UZ,1667869867,40.4272,71.7189,48.92,81,75,4.61,broken clouds
210,210,Hong Kong,HK,1667869852,22.2855,114.1577,73.33,87,100,8.01,overcast clouds
211,211,East London,ZA,1667869867,-33.0153,27.9116,67.39,87,100,13.65,overcast clouds
212,212,Lavrentiya,RU,1667869868,65.5833,-171.0,28.92,97,100,21.94,snow
213,213,Santa Isabel Rio Negro,BR,1667869868,-0.4139,-65.0192,73.71,97,94,1.34,overcast clouds
214,214,Airai,TL,1667869869,-8.9266,125.4092,73.15,59,90,1.07,overcast clouds
215,215,Napoleon,US,1667869869,41.3923,-84.1252,50.04,45,28,8.97,scattered clouds
216,216,Shelburne,CA,1667869870,44.0787,-80.2041,39.76,76,100,14.18,overcast clouds
217,217,Katsuura,JP,1667869871,35.1333,140.3,63.01,71,0,10.65,clear sky
218,218,Vilhena,BR,1667869871,-12.7406,-60.1458,71.4,41,4,0.51,clear sky
219,219,Simbahan,PH,1667869872,6.3032,120.5836,81.81,77,100,2.66,overcast clouds
220,220,Vardø,NO,1667869872,70.3705,31.1107,33.78,86,75,6.91,broken clouds
221,221,Dudinka,RU,1667869873,69.4058,86.1778,-7.38,100,22,3.31,few clouds
222,222,Hofn,IS,1667869874,64.2539,-15.2082,43.77,92,100,27.04,overcast clouds
223,223,Tuktoyaktuk,CA,1667869874,69.4541,-133.0374,3.04,83,100,9.75,overcast clouds
224,224,Adrar,MR,1667869875,20.5022,-10.0711,75.29,16,0,8.28,clear sky
225,225,Beyneu,KZ,1667869875,45.3167,55.2,32.5,76,6,5.21,clear sky
226,226,Gobabis,,1667869875,-22.45,18.9667,61.81,70,0,5.48,clear sky
227,227,Kalabo,ZM,1667869876,-14.97,22.6814,67.3,85,100,4.09,light rain
228,228,Tartagal,AR,1667869876,-22.5164,-63.8013,78.67,28,100,2.84,overcast clouds
229,229,Lorengau,PG,1667869877,-2.0226,147.2712,84.69,73,100,5.73,overcast clouds
230,230,Danilovka,RU,1667869877,50.3557,44.1168,32.63,79,100,5.17,overcast clouds
231,231,Uauá,BR,1667869878,-9.8414,-39.4817,75.61,67,37,15.17,scattered clouds
232,232,Faya,SA,1667869908,18.3851,42.4509,57.72,86,1,3.76,clear sky
233,233,Adjumani,UG,1667869909,3.3779,31.7909,68.63,92,100,2.33,light rain
234,234,Voznesen'Ye,RU,1667869909,61.0106,35.4781,37.83,83,100,11.59,overcast clouds
235,235,Grindavik,IS,1667869910,63.8424,-22.4338,41.47,87,75,17.27,light rain
236,236,Alghero,IT,1667869699,40.5589,8.3181,55.49,100,20,3.44,few clouds
237,237,Shugurovo,RU,1667869911,54.5083,52.1326,24.57,97,86,5.21,overcast clouds
238,238,Mahébourg,MU,1667869911,-20.4081,57.7,70.25,79,44,10.45,scattered clouds
239,239,Port Macquarie,AU,1667869796,-31.4333,152.9167,65.89,63,69,8.08,broken clouds
240,240,Tuatapere,NZ,1667869912,-46.1333,167.6833,64.83,52,91,4.97,overcast clouds
241,241,Rio Brilhante,BR,1667869653,-21.8019,-54.5464,66.07,56,66,6.76,broken clouds
242,242,Severo-Kuril'Sk,RU,1667869913,50.6789,156.125,39.72,74,78,18.03,broken clouds
243,243,Upernavik,GL,1667869913,72.7868,-56.1549,8.31,88,94,7.11,overcast clouds
244,244,Farafangana,MG,1667869914,-22.8167,47.8333,72.03,88,88,9.73,overcast clouds
245,245,Ketchikan,US,1667869914,55.3422,-131.6461,24.39,44,0,11.32,clear sky
246,246,Morehead,US,1667869915,37.2711,-87.1764,65.98,39,100,5.75,overcast clouds
247,247,Achacachi,BO,1667869874,-16.05,-68.6833,41.83,76,33,9.42,scattered clouds
248,248,Nanortalik,GL,1667869915,60.1432,-45.2371,28.29,87,100,3.44,overcast clouds
249,249,Khandyga,RU,1667869916,62.6667,135.6,-11.29,95,97,3.06,overcast clouds
250,250,Gazojak,TM,1667869917,41.1875,61.4036,38.43,64,87,9.26,overcast clouds
251,251,Paraíba Do Sul,BR,1667869917,-22.1619,-43.2928,64.17,98,95,2.1,overcast clouds
252,252,Jalu,LY,1667869918,29.0331,21.5482,62.73,77,0,9.89,clear sky
253,253,Kumul,CN,1667869918,42.8,93.45,45.0,30,100,1.5,overcast clouds
254,254,Altamont,US,1667869749,42.2068,-121.7372,35.44,78,75,11.5,broken clouds
255,255,Pamanukan,ID,1667869919,-6.2842,107.8106,79.88,74,100,2.15,overcast clouds
256,256,Hlobyne,UA,1667869919,49.3878,33.2596,36.19,75,63,6.2,broken clouds
257,257,Umluj,SA,1667869920,25.0213,37.2685,73.67,60,0,8.99,clear sky
258,258,Bilibino,RU,1667869921,68.0546,166.4372,-3.55,96,66,4.03,broken clouds
259,259,Laguna,US,1667869838,38.421,-121.4238,55.69,77,100,6.91,overcast clouds
260,260,Balyqshy,KZ,1667869921,47.0667,51.8667,35.6,75,75,4.47,broken clouds
261,261,Umm Kaddadah,SD,1667869922,13.6017,26.6876,74.53,21,96,16.02,overcast clouds
262,262,Notre-Dame-Du-Lac,CA,1667869922,47.6136,-68.7964,46.87,59,6,13.89,clear sky
263,263,Koltubanovskiy,RU,1667869923,52.9407,52.0269,26.37,95,100,5.08,overcast clouds
264,264,Gisborne,NZ,1667869923,-38.6533,178.0042,64.17,62,100,12.68,light rain
265,265,Thinadhoo,MV,1667869924,0.5333,72.9333,82.15,75,12,18.23,few clouds
266,266,Mount Gambier,AU,1667869924,-37.8333,140.7667,77.59,42,0,5.91,clear sky
267,267,Lingyuan,CN,1667869925,41.24,119.4011,43.39,23,7,5.95,clear sky
268,268,Whitehorse,CA,1667869925,60.7161,-135.0538,2.8,71,12,11.99,few clouds
269,269,Matadi,CD,1667869926,-5.8167,13.45,76.6,86,92,2.82,overcast clouds
270,270,Meulaboh,ID,1667869926,4.1363,96.1285,77.95,85,79,1.88,broken clouds
271,271,Talnakh,RU,1667869927,69.4865,88.3972,-7.8,100,88,5.73,overcast clouds
272,272,Luanda,AO,1667869927,-8.8368,13.2343,77.2,83,100,9.42,overcast clouds
273,273,Ust-Maya,RU,1667869928,60.4167,134.5333,-1.12,92,100,1.81,overcast clouds
274,274,Mehamn,NO,1667869928,71.0357,27.8492,31.95,100,20,8.05,few clouds
275,275,Maningrida,AU,1667869959,-12.0667,134.2667,90.43,55,100,6.4,overcast clouds
276,276,Mossamedes,AO,1667869959,-15.1961,12.1522,67.95,77,0,6.69,clear sky
277,277,Uşak Province,TR,1667869960,38.5,29.4167,44.64,86,0,5.5,clear sky
278,278,Ulaangom,MN,1667869960,49.9811,92.0667,20.44,89,73,1.48,broken clouds
279,279,Comodoro Rivadavia,AR,1667869960,-45.8667,-67.5,71.46,35,40,2.3,scattered clouds
280,280,Cabudare,VE,1667869961,10.0289,-69.0894,72.48,95,87,1.74,overcast clouds
281,281,Lovington,US,1667869961,32.944,-103.3485,64.17,79,100,1.99,overcast clouds
282,282,São Gonçalo Dos Campos,BR,1667869962,-12.4333,-38.9667,70.81,79,41,6.8,scattered clouds
283,283,Vidisha,IN,1667869962,23.5333,77.8167,65.77,58,6,5.03,clear sky
284,284,Churapcha,RU,1667869963,62.0025,132.4325,-4.72,94,100,0.69,overcast clouds
285,285,Karratha,AU,1667869963,-20.7377,116.8463,74.12,43,0,14.58,clear sky
286,286,Broome,US,1667869964,42.2506,-75.833,49.46,55,0,10.36,clear sky
287,287,Sørland,NO,1667869964,67.667,12.6934,42.66,66,7,21.94,clear sky
288,288,Qandala,SO,1667869965,11.472,49.8728,79.12,74,5,4.21,clear sky
289,289,Cockburn Town,TC,1667869965,21.4612,-71.1419,80.47,72,42,6.33,scattered clouds
290,290,Kushiro,JP,1667869966,42.975,144.3747,47.14,64,38,1.36,scattered clouds
291,291,Salinópolis,BR,1667869966,-0.6136,-47.3561,78.35,87,100,8.21,light rain
292,292,Matagami,CA,1667869967,49.7502,-77.6328,30.31,80,100,16.11,overcast clouds
293,293,Sosnovo-Ozerskoye,RU,1667869967,52.5249,111.5418,24.08,73,100,8.88,overcast clouds
294,294,Tezu,IN,1667869968,27.9167,96.1667,65.44,60,0,2.82,clear sky
295,295,Kargala,RU,1667869968,56.6208,83.9607,23.31,99,84,3.09,broken clouds
296,296,Kenai,US,1667869969,60.5544,-151.2583,25.14,97,100,12.66,snow
297,297,Västerås,SE,1667869969,59.6162,16.5528,46.31,87,100,8.05,overcast clouds
298,298,Valley City,US,1667869970,46.9233,-98.0032,28.92,69,100,10.36,overcast clouds
299,299,Nyurba,RU,1667869970,63.2842,118.3319,4.35,96,100,4.81,light snow
300,300,Vilcún,CL,1667869971,-38.65,-72.2333,54.34,76,53,2.66,broken clouds
301,301,Mergen,CN,1667869971,49.1833,125.2167,32.34,65,5,5.12,clear sky
302,302,Verkhoyansk,RU,1667869972,67.5447,133.385,-0.83,98,100,2.57,overcast clouds
303,303,Gushikawa,JP,1667869972,26.3544,127.8686,77.0,80,100,10.36,overcast clouds
304,304,Aykhal,RU,1667869973,66.0,111.5,-4.88,100,99,2.91,overcast clouds
305,305,The Valley,AI,1667869973,18.217,-63.0578,78.82,80,100,15.82,overcast clouds
306,306,High Rock,BS,1667869974,26.6208,-78.2833,77.02,73,0,26.37,clear sky
307,307,Khatanga,RU,1667869974,71.9667,102.5,6.37,96,100,4.85,light snow
308,308,Igarka,RU,1667869975,67.4667,86.5833,5.18,96,100,7.02,overcast clouds
309,309,Ranong,TH,1667869975,9.9658,98.6348,78.01,89,100,4.47,overcast clouds
310,310,Hefei,CN,1667869976,31.8639,117.2808,64.24,51,6,7.94,clear sky
311,311,Mayo,US,1667869976,38.8876,-76.5119,67.71,64,0,3.44,clear sky
312,312,Kouqian,CN,1667869977,43.6391,126.4578,42.03,45,37,10.02,scattered clouds
313,313,Hwange,ZW,1667869977,-18.3693,26.5019,72.75,71,100,1.52,overcast clouds
314,314,Kayerkan,RU,1667869977,69.3497,87.7602,-8.48,83,98,3.36,overcast clouds
315,315,Araouane,ML,1667869978,18.9048,-3.5265,72.07,15,0,8.03,clear sky
316,316,Nantucket,US,1667869978,41.2835,-70.0995,68.05,93,0,5.75,clear sky
317,317,Kavieng,PG,1667869979,-2.5744,150.7967,84.51,69,100,5.17,light rain
318,318,Bilma,NE,1667869979,18.6853,12.9164,70.59,21,0,9.64,clear sky
319,319,Ende,ID,1667869980,-8.8432,121.6623,82.2,79,99,0.56,overcast clouds
320,320,Lübben,DE,1667869980,51.95,13.9,51.26,87,100,8.7,overcast clouds
321,321,Paulo Afonso,BR,1667870011,-9.4061,-38.2147,74.52,78,100,9.26,overcast clouds
322,322,Atasū,KZ,1667870011,48.6814,71.6433,27.14,68,100,4.09,overcast clouds
323,323,Banes,CU,1667870012,20.9625,-75.7186,74.23,85,11,3.33,few clouds
324,324,Boa Vista,BR,1667869842,2.8197,-60.6733,78.78,83,40,6.91,scattered clouds
325,325,Burnie,AU,1667870013,-41.0667,145.9167,70.95,52,7,4.74,clear sky
326,326,Dingle,PH,1667870013,10.9995,122.6711,83.75,79,96,8.25,overcast clouds
327,327,Masoko,TZ,1667870014,-9.3333,33.75,70.07,61,45,2.46,scattered clouds
328,328,Soddy-Daisy,US,1667870014,35.2359,-85.1908,70.59,90,0,4.83,clear sky
329,329,Oranjemund,,1667870015,-28.55,16.4333,59.36,93,69,8.63,broken clouds
330,330,Skjervøy,NO,1667870015,70.0311,20.9714,35.6,68,20,8.25,few clouds
331,331,Mkushi,ZM,1667870015,-13.6202,29.3939,64.99,86,100,1.59,overcast clouds
332,332,Saldanha,ZA,1667870016,-33.0117,17.9442,59.95,87,29,6.69,scattered clouds
333,333,Erdenet,MN,1667870016,49.0333,104.0833,30.94,49,11,4.94,few clouds
334,334,Ozieri,IT,1667870017,40.586,9.0012,51.78,93,16,2.55,few clouds
335,335,Selma,US,1667870017,36.5708,-119.6121,55.9,89,100,4.61,mist
336,336,Parkes,AU,1667870018,-33.1333,148.1833,69.42,54,13,5.97,few clouds
337,337,Mount Isa,AU,1667870018,-20.7333,139.5,94.77,24,0,9.22,clear sky
338,338,Lima Duarte,BR,1667870019,-21.8425,-43.7931,60.62,99,96,2.66,light rain
339,339,Severobaykal'Sk,RU,1667870019,55.65,109.3167,22.91,70,12,8.63,few clouds
340,340,Haapiti,PF,1667870020,-17.5667,-149.8667,82.13,79,14,10.89,few clouds
341,341,Goma,CD,1667870020,-1.6792,29.2228,61.43,89,100,3.47,overcast clouds
342,342,Novobirilyussy,RU,1667870021,56.9514,90.6661,21.97,98,75,3.89,broken clouds
343,343,Oranjestad,AW,1667870021,12.524,-70.027,80.55,99,20,2.3,few clouds
344,344,Virginia Beach,US,1667869855,36.8529,-75.978,69.03,54,20,3.44,few clouds
345,345,Yuzhno-Kurilsk,RU,1667870022,44.0306,145.8556,48.97,59,55,9.06,broken clouds
346,346,Cururupu,BR,1667870022,-1.8283,-44.8683,75.61,93,69,3.53,broken clouds
347,347,Shimodate,JP,1667870023,36.3,139.9833,61.81,48,0,4.36,clear sky
348,348,Miguel Alves,BR,1667870023,-4.1656,-42.8953,75.07,93,100,3.13,overcast clouds
349,349,Presidencia Roque Sáenz Peña,AR,1667870024,-26.7852,-60.4388,75.72,32,100,9.13,overcast clouds
350,350,Inongo,CD,1667870024,-1.95,18.2667,70.92,96,99,1.59,overcast clouds
351,351,Gastonia,US,1667870024,35.2621,-81.1873,71.71,89,40,0.0,scattered clouds
352,352,Saint-Pierre,RE,1667870025,-21.3393,55.4781,71.28,64,0,5.75,clear sky
353,353,Saint-Ambroise,CA,1667870026,48.5501,-71.3324,41.32,59,100,16.75,overcast clouds
354,354,Coquimbo,CL,1667870026,-29.9533,-71.3436,56.93,94,100,2.3,overcast clouds
355,355,Kahului,US,1667870027,20.8947,-156.47,87.82,60,40,21.85,scattered clouds
356,356,Kirensk,RU,1667870027,57.7853,108.1119,23.81,86,100,12.15,light snow
357,357,Labuhan,ID,1667870027,-6.8844,112.2051,81.36,75,97,5.37,overcast clouds
358,358,Tiznit Province,MA,1667870028,29.5833,-9.5,68.05,26,91,3.11,overcast clouds
359,359,Camacha,PT,1667870028,33.0833,-16.3333,63.82,94,20,2.3,few clouds
360,360,Salalah,OM,1667870029,17.0151,54.0924,75.29,78,0,0.0,clear sky
361,361,Arman',RU,1667870029,59.7,150.1667,21.02,91,100,17.45,light snow
362,362,Naghadeh,IR,1667870030,36.9553,45.388,45.5,74,100,4.43,overcast clouds
363,363,Aleksandrov Gay,RU,1667870030,50.147,48.5704,35.28,76,100,6.76,overcast clouds
364,364,Koumac,NC,1667870031,-20.5667,164.2833,79.65,77,100,15.21,light rain
365,365,Kemijärvi,FI,1667870031,66.7131,27.4306,22.89,98,35,1.68,scattered clouds
366,366,Georgiyevka,KZ,1667870032,43.0369,74.7114,41.04,100,75,4.47,light intensity shower rain
367,367,Port Blair,IN,1667870062,11.6667,92.75,80.04,81,100,10.65,light rain
368,368,Kirakira,SB,1667870063,-10.4544,161.9205,84.31,77,31,8.21,scattered clouds
369,369,Angoram,PG,1667870063,-4.0625,144.0661,79.09,92,99,4.43,overcast clouds
370,370,Hobyo,SO,1667870064,5.3505,48.5268,79.77,74,27,6.82,scattered clouds
371,371,Carahue,CL,1667870064,-38.7,-73.1667,50.02,85,30,1.63,scattered clouds
372,372,‘Ewa Beach,US,1667870065,21.3156,-158.0072,85.37,60,75,14.97,broken clouds
373,373,Catió,GW,1667870066,11.2833,-15.25,78.94,77,94,6.46,overcast clouds
374,374,Saint-Augustin,CA,1667870066,51.226,-58.6502,48.76,77,99,19.1,light rain
375,375,Jiuquan,CN,1667870067,39.7432,98.5174,37.13,36,10,1.66,clear sky
376,376,Wajid,SO,1667870067,3.8093,43.2471,72.32,86,83,13.04,broken clouds
377,377,Voyvozh,RU,1667870068,62.892,54.9635,27.34,97,100,8.23,snow
378,378,Acaraú,BR,1667870068,-2.8856,-40.12,79.14,73,21,14.2,few clouds
379,379,Imbituba,BR,1667870069,-28.24,-48.6703,60.78,88,93,6.6,overcast clouds
380,380,Tilichiki,RU,1667870069,60.4667,166.1,18.73,92,100,6.87,overcast clouds
381,381,Maragogi,BR,1667870069,-9.0122,-35.2225,75.76,82,25,2.55,scattered clouds
382,382,Bemidji,US,1667870070,47.4736,-94.8803,33.91,80,0,0.0,clear sky
383,383,Māngrol,IN,1667870071,21.1167,70.1167,75.58,65,0,10.27,clear sky
384,384,Forsytheganj,BY,1667870071,52.6333,29.7333,43.97,90,100,9.22,overcast clouds
385,385,Codajás,BR,1667870072,-3.8367,-62.0569,74.12,96,100,2.59,overcast clouds
386,386,Itarema,BR,1667870072,-2.9248,-39.9167,79.05,72,26,13.69,scattered clouds
387,387,Merauke,ID,1667870073,-8.4667,140.3333,83.84,71,47,5.46,scattered clouds
388,388,Melipilla,CL,1667869914,-33.7,-71.2167,54.41,91,100,3.58,overcast clouds
389,389,Kuito,AO,1667870073,-12.3833,16.9333,63.59,77,100,3.11,overcast clouds
390,390,Teknāf,BD,1667870074,20.8624,92.3058,73.74,82,2,5.06,clear sky
391,391,Noumea,NC,1667870074,-22.2763,166.4572,78.01,99,100,18.12,overcast clouds
392,392,Abu Kamal,SY,1667870075,34.4506,40.9171,62.92,54,100,7.36,overcast clouds
393,393,Staryy Nadym,RU,1667870075,65.6118,72.6842,21.88,96,100,8.93,light snow
394,394,Termoli,IT,1667870076,41.9888,14.9895,57.78,71,0,3.8,clear sky
395,395,Iqaluit,CA,1667870076,63.7506,-68.5145,17.33,67,75,9.22,broken clouds
396,396,Kaduna,NG,1667870076,10.5222,7.4383,68.25,31,99,6.38,overcast clouds
397,397,Garissa,KE,1667870077,-0.4536,39.6401,77.41,77,80,12.21,broken clouds
398,398,Ushtobe,KZ,1667870077,45.2514,77.9838,49.23,74,100,12.06,overcast clouds
399,399,Soyo,AO,1667870078,-6.1349,12.3689,77.92,85,84,7.07,broken clouds
400,400,Baruun-Urt,MN,1667870078,46.6806,113.2792,30.42,38,49,11.68,scattered clouds
401,401,Terrace,CA,1667870079,54.5163,-128.6035,18.3,64,13,5.1,few clouds
402,402,Ust-Nera,RU,1667870079,64.5667,143.2,-18.6,98,85,4.27,overcast clouds
403,403,Esperance,AU,1667869868,-33.8667,121.9,60.64,74,100,15.46,heavy intensity rain
404,404,Yārāda,IN,1667870080,17.65,83.2667,71.92,100,49,2.3,mist
405,405,Kimbe,PG,1667870080,-5.5502,150.1429,88.39,60,98,5.28,overcast clouds
406,406,Franklin,US,1667869856,39.9667,-83.0166,54.32,37,40,5.75,scattered clouds
407,407,Itapetinga,BR,1667870081,-15.2489,-40.2478,64.89,86,100,4.5,overcast clouds
408,408,Belyy,RU,1667870082,55.8402,32.9419,40.66,98,100,8.66,overcast clouds
409,409,Lātehār,IN,1667870082,23.75,84.5,61.61,80,38,2.8,scattered clouds
410,410,Isla Mujeres,MX,1667870082,21.2311,-86.731,77.16,78,3,14.45,light rain
411,411,Socorro,US,1667870083,31.6546,-106.3033,67.87,26,75,5.75,broken clouds
412,412,Wyszków,PL,1667870083,52.5928,21.4584,49.95,91,11,8.23,few clouds
413,413,Ambilobe,MG,1667870084,-13.2,49.05,71.02,76,100,5.03,overcast clouds
414,414,Yen Bai,VN,1667870084,21.7,104.8667,72.64,73,0,0.89,clear sky
415,415,Grand Gaube,MU,1667870115,-20.0064,57.6608,73.8,78,13,1.99,few clouds
416,416,Praia Da Vitória,PT,1667870115,38.7333,-27.0667,61.75,84,88,12.59,overcast clouds
417,417,Colesberg,ZA,1667870116,-30.72,25.0972,61.27,65,100,7.63,overcast clouds
418,418,Ampanihy,MG,1667870116,-24.7,44.75,70.93,72,0,3.47,clear sky
419,419,Beringovskiy,RU,1667870086,63.05,179.3167,29.71,97,100,15.19,snow
420,420,Philadelphia,US,1667869952,39.9523,-75.1638,66.7,50,0,8.05,clear sky
421,421,Léo,BF,1667870118,11.1,-2.1,72.45,20,10,6.38,clear sky
422,422,Whitefish,US,1667870118,48.4111,-114.3376,15.55,62,100,19.57,overcast clouds
423,423,Berlevåg,NO,1667870118,70.8578,29.0864,32.0,86,40,4.61,scattered clouds
424,424,Ulladulla,AU,1667870119,-35.35,150.4667,70.07,57,4,11.86,clear sky
425,425,Ilulissat,GL,1667870084,69.2167,-51.1,-7.53,88,15,6.51,few clouds
426,426,Guarapari,BR,1667870120,-20.6667,-40.4975,72.9,79,14,3.47,few clouds
427,427,Gold Coast,AU,1667870120,-28.0,153.4333,75.24,83,96,14.85,light rain
428,428,Iida,JP,1667870121,35.5197,137.8207,54.03,71,0,3.38,clear sky
429,429,Bahile,PH,1667870122,9.9995,118.7878,84.2,72,100,0.78,overcast clouds
430,430,Assemini,IT,1667870122,39.2915,9.0015,60.04,85,0,4.61,clear sky
431,431,Waterfoot,GB,1667870123,53.6929,-2.2525,55.99,92,100,8.99,light rain
432,432,Zhigansk,RU,1667870123,66.7697,123.3711,-8.39,94,100,6.29,overcast clouds
433,433,Isiro,CD,1667870124,2.7739,27.616,66.02,99,100,2.82,overcast clouds
434,434,Joensuu,FI,1667870124,62.6012,29.7632,43.29,93,100,8.05,overcast clouds
435,435,Pacific Grove,US,1667869846,36.6177,-121.9166,56.66,71,100,11.99,overcast clouds
436,436,Paracuru,BR,1667870125,-3.41,-39.0306,80.11,71,67,9.93,broken clouds
437,437,Esim,GH,1667870126,4.8699,-2.2405,78.06,86,100,4.07,overcast clouds
438,438,Dondo,MZ,1667870126,-19.6094,34.7431,73.13,93,10,4.27,clear sky
439,439,Sungai Penuh,ID,1667870127,-2.0833,101.3833,68.29,88,100,0.89,overcast clouds
440,440,Anori,BR,1667870127,-3.7728,-61.6442,74.52,95,100,2.3,overcast clouds
441,441,Wanning,CN,1667870128,18.8003,110.3967,72.57,95,100,9.71,overcast clouds
442,442,Saucillo,MX,1667870128,28.0167,-105.2833,73.9,23,96,11.83,overcast clouds
443,443,Sitka,US,1667870129,57.0531,-135.33,35.49,25,0,0.0,clear sky
444,444,Goderich,CA,1667870129,43.7501,-81.7165,47.91,57,12,14.97,few clouds
445,445,Porlamar,VE,1667870130,10.958,-63.8491,80.83,84,84,9.31,broken clouds
446,446,Fare,PF,1667870130,-16.7,-151.0167,78.64,75,15,8.16,few clouds
447,447,Yumen,CN,1667870130,40.2833,97.2,36.81,36,51,1.95,broken clouds
448,448,Alta Floresta,BR,1667870131,-9.8756,-56.0861,77.61,50,19,2.48,few clouds
449,449,Nizwá,OM,1667870132,22.9333,57.5333,72.25,52,9,1.77,clear sky
450,450,Vestmanna,FO,1667870132,62.1564,-7.1664,47.32,87,75,36.82,broken clouds
451,451,Jiménez,MX,1667870133,28.3333,-105.4,73.94,21,22,9.95,few clouds
452,452,Kavaratti,IN,1667870133,10.5669,72.642,81.57,71,1,5.06,clear sky
453,453,Verkhnyaya Inta,RU,1667870134,65.9811,60.3094,24.98,91,100,12.21,overcast clouds
454,454,Yaan,NG,1667870134,7.3833,8.5667,74.32,45,99,2.15,overcast clouds
455,455,Doka,SD,1667870135,13.5167,35.7667,76.73,38,1,4.54,clear sky
456,456,Balkhash,KZ,1667870135,46.844,74.9804,36.21,100,100,6.71,mist
457,457,Disna,BY,1667870136,55.568,28.1971,44.83,88,100,10.22,overcast clouds
458,458,Bolgar,RU,1667870136,54.95,49.0667,34.29,87,100,9.73,overcast clouds
459,459,Vuktyl,RU,1667870137,63.8567,57.3094,27.75,97,100,8.39,light snow
460,460,Rundu,,1667870137,-17.9333,19.7667,74.03,61,98,4.34,overcast clouds
461,461,Silifke,TR,1667870137,36.3778,33.9344,63.25,73,70,9.06,broken clouds
462,462,Isangel,VU,1667870138,-19.55,169.2667,77.11,88,75,13.8,broken clouds
463,463,Monrovia,LR,1667870131,6.3005,-10.7969,77.81,85,100,3.94,overcast clouds
464,464,Gävle,SE,1667870169,60.6745,17.1417,44.35,99,100,1.01,overcast clouds
465,465,Kamaishi,JP,1667870169,39.2667,141.8833,57.88,65,98,2.51,overcast clouds
466,466,Alofi,NU,1667870170,-19.0595,-169.9187,80.49,65,75,13.8,broken clouds
467,467,Matamoros,MX,1667870171,25.5333,-103.25,82.51,27,0,4.61,clear sky
468,468,Yeppoon,AU,1667870171,-23.1333,150.7333,78.58,63,3,13.49,clear sky
469,469,Vicuña,CL,1667870171,-30.0319,-70.7081,49.73,57,100,1.68,overcast clouds
470,470,Caravelas,BR,1667870172,-17.7125,-39.2481,70.07,74,100,4.85,overcast clouds
471,471,Redmond,US,1667869946,47.674,-122.1215,45.09,92,100,1.01,overcast clouds
472,472,Mafinga,TZ,1667870173,-7.25,35.0667,70.77,67,77,4.59,broken clouds
473,473,Syracuse,IT,1667870105,37.0881,15.2792,51.17,72,0,3.22,clear sky
474,474,Baiima,SL,1667870174,8.1,-11.85,73.4,98,99,1.48,overcast clouds
475,475,Shubarshi,KZ,1667870174,48.5872,57.1869,25.95,87,27,5.79,scattered clouds
476,476,Taywarah,AF,1667870174,33.35,64.4167,33.01,76,97,2.8,overcast clouds
477,477,Kirkenær,NO,1667870175,60.4564,12.0582,41.04,94,100,1.39,overcast clouds
478,478,Abu Samrah,SY,1667870175,35.3029,37.1841,56.7,82,100,2.53,overcast clouds
479,479,Natal,BR,1667870176,-5.795,-35.2094,77.22,78,20,4.61,few clouds
480,480,Bosaso,SO,1667870176,11.2842,49.1816,78.89,71,0,4.65,clear sky
481,481,Arlit,NE,1667870177,18.7369,7.3853,71.15,21,94,8.12,overcast clouds
482,482,San Patricio,US,1667870178,28.017,-97.5169,78.67,81,0,10.58,clear sky
483,483,Bogorodskoye,RU,1667870178,56.55,37.8833,36.3,96,100,10.13,overcast clouds
484,484,Cherepovets,RU,1667870133,59.1333,37.9,34.38,94,100,9.1,overcast clouds
485,485,Biltine,TD,1667870179,14.5333,20.9167,77.25,22,4,9.26,clear sky
486,486,Nakhon Thai,TH,1667870180,17.1006,100.8374,74.17,80,2,2.62,clear sky
487,487,Kalāleh,IR,1667870180,37.3807,55.4916,39.56,71,9,2.98,clear sky
488,488,Manokwari,ID,1667870181,-0.8667,134.0833,82.92,73,96,5.28,overcast clouds
489,489,Mawlaik,MM,1667870181,23.6333,94.4167,69.13,83,0,0.47,clear sky
490,490,Ust'-Omchug,RU,1667870182,61.15,149.6333,-0.29,98,100,5.23,overcast clouds
491,491,Rio Grande,BR,1667870095,-32.035,-52.0986,62.19,76,67,15.28,broken clouds
492,492,Arrondissement De Lannion,FR,1667870183,48.75,-3.4167,53.01,90,100,1.99,light rain
493,493,Kathmandu,NP,1667869944,27.7167,85.3167,57.42,94,75,2.3,mist
494,494,Chinú,CO,1667870183,9.1057,-75.3981,75.6,90,100,4.25,overcast clouds
495,495,Bayangol,RU,1667870184,50.6977,103.4656,19.17,91,100,3.11,overcast clouds
496,496,Rustenburg,ZA,1667870184,-25.6676,27.2421,62.19,94,100,1.28,heavy intensity rain
497,497,Half Moon Bay,US,1667870185,37.4636,-122.4286,55.78,75,20,13.8,few clouds
498,498,Kaitangata,NZ,1667870185,-46.2817,169.8464,56.98,72,100,6.35,overcast clouds
499,499,Ejea De Los Caballeros,ES,1667870186,42.1263,-1.1372,57.42,66,100,9.6,overcast clouds
500,500,Chifeng,CN,1667870187,42.2683,118.9636,40.05,30,1,4.76,clear sky
501,501,Nizhniy Tsasuchey,RU,1667870187,50.5167,115.1333,31.93,52,97,4.92,overcast clouds
502,502,Mīnāb,IR,1667870091,27.1467,57.0801,76.91,71,29,6.06,light rain
503,503,Kontagora,NG,1667870188,10.3999,5.4695,70.9,32,79,4.09,broken clouds
504,504,Mata Grande,BR,1667870188,-9.1175,-37.7322,69.1,87,86,7.61,overcast clouds
505,505,Casper,US,1667870158,42.8666,-106.3131,53.82,48,0,10.36,clear sky
506,506,Laas,IT,1667870189,46.6166,10.7002,42.98,60,96,1.77,overcast clouds
507,507,Nome,US,1667870006,64.5011,-165.4064,33.87,87,100,31.07,snow
508,508,Klaksvík,FO,1667870190,62.2266,-6.589,49.12,90,100,35.86,overcast clouds
509,509,Kalmunai,LK,1667870190,7.4167,81.8167,76.46,88,100,7.58,overcast clouds
510,510,San Jerónimo,PE,1667870190,-11.9472,-75.2829,46.99,90,100,1.88,overcast clouds
511,511,Oktyabr'Skoye,RU,1667870221,43.0645,44.7417,33.94,100,66,4.47,broken clouds
512,512,Nouakchott,MR,1667870221,18.0858,-15.9785,71.53,65,6,10.78,clear sky
513,513,Vilyuysk,RU,1667870222,63.7553,121.6247,-14.53,96,53,3.94,broken clouds
514,514,Bowen,AU,1667870223,-20.0167,148.2333,80.4,57,0,16.87,clear sky
515,515,Nhulunbuy,AU,1667870223,-12.2333,136.7667,90.21,55,75,10.36,broken clouds
516,516,Ghansor,IN,1667870224,22.65,79.95,59.02,66,18,2.44,few clouds
517,517,Longhua,CN,1667869932,23.6137,114.1919,65.7,94,100,1.99,overcast clouds
518,518,Sioux Lookout,CA,1667870224,50.1001,-91.917,30.27,80,100,2.3,overcast clouds
519,519,Ayaviri,PE,1667870225,-14.8864,-70.5889,47.53,53,38,2.73,scattered clouds
520,520,Mikuni,JP,1667870225,36.2171,136.1519,55.31,57,43,7.43,scattered clouds
521,521,Nemuro,JP,1667870030,43.3236,145.575,48.25,61,89,5.28,overcast clouds
522,522,Sobolevo,RU,1667870226,54.4299,31.8996,41.76,89,100,11.54,overcast clouds
523,523,Zeya,RU,1667870227,53.75,127.2667,18.01,84,19,1.9,few clouds
524,524,Eyl,SO,1667870227,7.9803,49.8164,77.61,76,36,6.64,scattered clouds
525,525,Mingora,PK,1667869957,34.7758,72.3625,52.34,60,99,7.38,overcast clouds
526,526,Sibolga,ID,1667870228,1.7427,98.7792,78.08,81,100,1.72,overcast clouds
527,527,Broken Hill,AU,1667870229,-31.95,141.4333,76.51,34,99,8.01,overcast clouds
528,528,Novosergiyevka,RU,1667870229,52.0934,53.6528,21.97,96,100,4.56,overcast clouds
529,529,Martapura,ID,1667870230,-3.4167,114.85,81.59,77,94,1.52,overcast clouds
530,530,Shangrao,CN,1667870230,28.4532,117.9686,67.24,61,0,5.93,clear sky
531,531,Woodstock,CA,1667870170,43.1334,-80.7497,40.87,68,4,7.0,clear sky
532,532,Jeypore,IN,1667870231,18.85,82.5833,61.72,76,9,2.95,clear sky
533,533,Tatarskaya Pishlya,RU,1667870232,54.0608,44.8998,33.44,95,100,6.85,overcast clouds
534,534,Conde,BR,1667870232,-7.2597,-34.9075,78.26,78,20,5.75,few clouds
535,535,Hundorp,NO,1667870233,61.5552,9.9407,39.79,97,100,1.66,overcast clouds
536,536,Cayenne,GF,1667870233,4.9333,-52.3333,75.24,94,0,0.0,clear sky
537,537,Puerto Ayacucho,VE,1667870234,5.6639,-67.6236,76.33,88,73,3.56,broken clouds
538,538,Orlik,RU,1667870235,52.5178,99.825,18.01,95,100,1.45,overcast clouds
539,539,Tandaltī,SD,1667870235,13.0167,31.8667,79.43,17,99,15.73,overcast clouds
540,540,Lindås,NO,1667870235,60.7381,5.16,48.25,79,77,9.75,broken clouds
541,541,Whitianga,NZ,1667870236,-36.8333,175.7,58.86,93,100,17.76,light rain
542,542,Srednekolymsk,RU,1667870237,67.45,153.6833,-3.86,99,100,8.39,overcast clouds
543,543,Te Anau,NZ,1667870237,-45.4167,167.7167,65.14,49,55,5.99,broken clouds
544,544,Bektemir,UZ,1667870238,41.2097,69.3342,41.05,100,100,6.91,light intensity shower rain
545,545,Kinkala,CG,1667870238,-4.3614,14.7644,71.6,88,100,1.83,overcast clouds
546,546,Águilas,ES,1667870239,37.4063,-1.5829,64.72,69,0,1.66,clear sky
547,547,Farah,AF,1667870240,32.5,62.5,55.11,58,88,2.48,overcast clouds
548,548,Jericho,PS,1667870240,31.8667,35.45,71.01,50,8,4.34,clear sky
549,549,Manzhouli,CN,1667870241,49.6,117.4333,26.73,75,34,2.42,scattered clouds
550,550,Sangar,RU,1667870241,63.9242,127.4739,-9.22,92,100,4.65,overcast clouds
551,551,Rognan,NO,1667870242,67.0953,15.3878,30.34,85,12,2.35,few clouds
552,552,Bazarnyy Syzgan,RU,1667870242,53.7512,46.7535,31.15,98,78,7.29,broken clouds
553,553,High Level,CA,1667870108,58.5169,-117.136,-0.42,94,100,1.77,overcast clouds
554,554,Vila Velha,BR,1667870243,-20.3297,-40.2925,73.35,80,75,2.3,broken clouds
555,555,Banbury,GB,1667870244,52.0602,-1.3403,57.67,79,100,5.99,light rain
556,556,Muzaffarabad,PK,1667870244,34.37,73.4711,51.44,66,10,7.78,clear sky
557,557,Lovozero,RU,1667870245,68.005,35.0117,29.21,87,100,3.87,overcast clouds
558,558,Winneba,GH,1667870236,5.3511,-0.6231,78.44,86,100,5.21,light rain
559,559,Águas Formosas,BR,1667870275,-17.0822,-40.9358,65.03,85,100,2.57,overcast clouds
560,560,San Ramon,US,1667869987,37.7799,-121.978,54.28,70,100,11.5,overcast clouds
561,561,General Roca,AR,1667870276,-39.0333,-67.5833,76.05,49,43,10.31,scattered clouds
562,562,Shitkino,RU,1667870276,56.3703,98.3543,23.85,90,99,6.46,overcast clouds
563,563,Rome,US,1667870021,43.2128,-75.4557,49.95,57,0,10.36,clear sky
564,564,Talavera De La Reina,ES,1667870277,39.9635,-4.8308,55.49,88,71,2.98,broken clouds
565,565,Toamasina,MG,1667870278,-18.1667,49.3833,66.2,94,20,2.3,few clouds
566,566,Waingapu,ID,1667870278,-9.6567,120.2641,85.28,66,81,4.32,broken clouds
567,567,Labuan,MY,1667870279,5.2767,115.2417,82.76,83,20,2.3,few clouds
568,568,Sawākin,SD,1667870279,19.1059,37.3321,81.9,78,13,4.52,few clouds
569,569,Hailar,CN,1667870280,49.2,119.7,23.76,75,11,6.17,few clouds
570,570,Salamanca,ES,1667870078,40.8333,-6.0,54.99,94,99,11.45,light rain
571,571,Kharp,RU,1667870280,66.8014,65.8081,18.0,90,96,7.4,overcast clouds
572,572,Opuwo,,1667870281,-18.0607,13.84,61.93,45,0,0.81,clear sky
573,573,Vanavara,RU,1667870281,60.34,102.2797,17.73,90,100,9.71,overcast clouds
574,574,Pedasí,PA,1667870282,7.5333,-80.0333,77.07,84,100,12.03,light rain
575,575,Kano,NG,1667870282,12.0001,8.5167,62.49,63,0,3.44,clear sky
576,576,Zabul Province,AF,1667870283,32.25,67.25,46.17,45,0,5.17,clear sky
577,577,Gayéri,BF,1667870283,12.6497,0.4931,74.86,18,6,6.6,clear sky
578,578,San Gabriel,US,1667870210,34.0961,-118.1058,62.08,93,100,6.91,overcast clouds
579,579,Dawlatabad,AF,1667870284,36.4141,64.9053,46.56,85,100,11.05,overcast clouds
580,580,Mananjary,MG,1667870284,-21.2167,48.3333,71.19,86,100,6.58,overcast clouds
581,581,Vila Franca Do Campo,PT,1667870285,37.7167,-25.4333,61.21,84,100,7.96,light rain
582,582,Zyryanka,RU,1667870286,65.75,150.85,-3.8,98,100,11.21,snow
583,583,Les Cayes,HT,1667870286,18.2,-73.75,76.71,80,23,1.99,few clouds
584,584,Jacqueville,CI,1667870287,5.2052,-4.4146,79.56,80,99,5.57,overcast clouds
585,585,Iguguno,TZ,1667870287,-4.5697,34.6275,67.15,76,79,4.7,light rain
586,586,Cuenca,EC,1667870288,-2.8833,-78.9833,59.13,67,75,6.91,broken clouds
587,587,Biscarrosse,FR,1667870288,44.3945,-1.1672,53.55,82,0,9.22,clear sky
588,588,Sept-Îles,CA,1667870163,50.2001,-66.3821,42.8,74,20,13.8,few clouds
589,589,Bengbu,CN,1667869989,32.9408,117.3608,62.11,64,12,9.26,few clouds
590,590,Sinnamary,GF,1667870289,5.3833,-52.95,78.3,86,100,9.33,overcast clouds
591,591,Hinton,CA,1667870131,53.4001,-117.5857,1.15,98,100,5.88,snow
592,592,Gorin,RU,1667870290,51.1983,136.6669,30.61,55,100,3.4,overcast clouds
593,593,Mentougou,CN,1667870290,39.9392,116.0917,43.74,23,0,1.39,clear sky
594,594,Tommot,RU,1667870291,58.9564,126.2925,8.15,95,100,1.81,overcast clouds
595,595,Lālmohan,BD,1667870291,22.3384,90.7419,72.21,78,0,5.46,clear sky
596,596,Samarinda,ID,1667870292,-0.5,117.15,83.21,67,100,3.58,overcast clouds
597,597,Tupik,RU,1667870293,54.4253,119.9327,19.92,85,100,2.28,overcast clouds
598,598,Macas,EC,1667870294,-2.3167,-78.1167,68.29,94,80,1.81,broken clouds
599,599,Nuuk,GL,1667870294,64.1835,-51.7216,18.21,73,20,12.66,few clouds
600,600,Nishihara,JP,1667870294,26.1842,127.7558,78.08,74,100,12.66,overcast clouds
601,601,Buchanan,LR,1667870295,5.8808,-10.0467,77.18,87,100,4.41,moderate rain
602,602,Severnoye,RU,1667870295,56.3491,78.3619,19.99,99,62,1.01,broken clouds
603,603,Palaia Fokaia,GR,1667870296,37.72,23.9463,61.92,75,0,12.21,clear sky
604,604,Soubre,CI,1667870297,5.7856,-6.6083,72.1,99,72,2.55,broken clouds
605,605,Bubaque,GW,1667870327,11.2833,-15.8333,83.77,64,99,12.57,overcast clouds
606,606,Hay River,CA,1667870063,60.8156,-115.7999,-1.03,94,34,6.46,scattered clouds
607,607,Kombissiri,BF,1667870328,12.0656,-1.3375,69.78,16,21,6.93,few clouds
608,608,Lázaro Cárdenas,MX,1667870328,17.9583,-102.2,78.76,83,1,6.15,clear sky
609,609,Auki,SB,1667870329,-8.7676,160.7034,83.93,72,20,6.4,few clouds
610,610,Safi,MA,1667870329,32.2994,-9.2372,64.11,82,84,3.44,broken clouds
611,611,Cubará,CO,1667870330,7.0008,-72.1085,72.93,96,99,2.71,overcast clouds
612,612,Pavlogradka,RU,1667870330,54.2024,73.5592,26.6,92,77,2.73,broken clouds
613,613,Forbes,AU,1667870331,-33.3833,148.0167,72.34,52,6,6.78,clear sky
614,614,La Palma,US,1667870331,33.8464,-118.0467,63.81,92,100,10.36,overcast clouds
615,615,Neutraubling,DE,1667870331,48.9833,12.2,48.79,94,52,4.07,broken clouds
616,616,Ciudad General Terán,MX,1667870332,25.2667,-99.6833,78.49,68,100,13.91,overcast clouds
617,617,Yueyang,CN,1667870332,29.3333,113.0919,67.95,47,2,2.37,clear sky
618,618,Pangnirtung,CA,1667870333,66.1451,-65.7125,5.43,61,55,6.15,broken clouds
619,619,Roebourne,AU,1667870333,-20.7833,117.1333,75.52,41,0,13.69,clear sky
620,620,Amazar,RU,1667870334,53.858,120.875,19.89,82,100,2.37,overcast clouds
621,621,Nālūt,LY,1667870334,30.3333,10.85,56.59,47,0,6.82,clear sky
622,622,Zanjān,IR,1667870335,36.6736,48.4787,39.27,84,100,5.53,overcast clouds
623,623,Laurel,US,1667870105,39.0993,-76.8483,67.21,55,0,5.75,clear sky
624,624,Gijang,KR,1667870336,35.2442,129.2139,56.93,36,0,1.88,clear sky
625,625,Vanino,RU,1667870336,49.0869,140.2543,38.05,46,23,7.34,few clouds
626,626,Mocuba,MZ,1667870336,-16.8392,36.9856,71.51,91,8,2.24,clear sky
627,627,Aksu,CN,1667870337,41.1231,80.2644,41.99,42,66,1.23,broken clouds
628,628,São Filipe,CV,1667870337,14.8961,-24.4956,77.99,66,100,4.18,overcast clouds
629,629,Khātra,IN,1667870338,22.9833,86.85,68.25,72,1,4.79,clear sky
630,630,Roald,NO,1667870093,62.5833,6.1333,47.75,81,16,8.05,few clouds
631,631,Slavyanka,RU,1667870339,42.8633,131.3847,42.84,48,0,4.18,clear sky
632,632,Santa Rosa,PH,1667870189,14.3122,121.1114,84.18,83,99,9.51,light rain
633,633,Egvekinot,RU,1667870339,66.3167,-179.1667,19.4,87,100,15.95,overcast clouds
634,634,Nizhneudinsk,RU,1667870340,54.9076,99.0276,22.35,86,100,3.42,overcast clouds
635,635,Lüshunkou,CN,1667870340,38.8,121.2667,55.62,83,0,2.64,clear sky
636,636,Hualmay,PE,1667870341,-11.0964,-77.6139,64.36,82,16,6.4,few clouds
637,637,Pakenham,AU,1667870341,-38.0667,145.4833,82.15,53,0,4.61,clear sky
638,638,Champerico,GT,1667870342,14.3,-91.9167,80.08,79,100,3.09,moderate rain
639,639,Dolgoprudnyy,RU,1667870342,55.9041,37.5606,37.47,93,100,8.95,light intensity drizzle
640,640,Jacmel,HT,1667870343,18.2342,-72.5347,80.44,83,2,0.81,clear sky
641,641,Norrtälje,SE,1667870343,59.758,18.705,48.02,88,100,11.23,light rain
642,642,Asău,RO,1667870344,46.4333,26.4,40.28,83,100,3.44,overcast clouds
643,643,Morant Bay,JM,1667870345,17.8815,-76.4093,80.22,77,18,1.3,few clouds
644,644,Shache,CN,1667870345,38.4167,77.2406,41.86,40,100,2.98,overcast clouds
645,645,Janaúba,BR,1667870346,-15.8025,-43.3089,75.11,51,100,8.66,overcast clouds
646,646,Banjar,ID,1667870346,-8.19,114.9675,85.33,67,100,0.74,overcast clouds
647,647,Anarcs,HU,1667870347,48.1764,22.1117,45.25,93,14,3.36,few clouds
648,648,Vogar,IS,1667870347,63.9832,-22.3874,44.64,93,75,14.97,moderate rain
649,649,Walvis Bay,,1667870347,-22.9575,14.5053,61.09,94,28,4.61,scattered clouds
650,650,Piteå,SE,1667870348,65.3172,21.4794,26.69,82,4,4.52,clear sky
651,651,Vagay,RU,1667870348,57.9375,69.0217,27.79,80,99,7.61,overcast clouds
652,652,Añisoc,GQ,1667870349,1.8658,10.7689,69.01,99,100,0.72,light rain
653,653,Jijiga,ET,1667870349,9.35,42.8,61.99,61,6,1.72,clear sky
654,654,Lethem,GY,1667870380,3.3803,-59.7968,75.78,91,99,4.94,overcast clouds
655,655,Luancheng,CN,1667870381,37.8792,114.6517,44.76,31,0,2.15,clear sky
656,656,Imeni Babushkina,RU,1667870381,59.7573,43.1285,33.76,91,100,8.9,overcast clouds
657,657,Valky,UA,1667870382,49.8387,35.6207,32.41,85,5,5.46,clear sky
658,658,Uyemskiy,RU,1667870382,64.4743,40.8524,39.25,100,100,4.47,overcast clouds
659,659,Yingkou,CN,1667870382,40.6648,122.2283,50.47,37,1,8.9,clear sky
660,660,Rochegda,RU,1667870383,62.8,43.25,36.55,97,100,6.64,overcast clouds
661,661,Aswān,EG,1667870383,24.0934,32.907,66.83,34,0,8.34,clear sky
662,662,Lianran,CN,1667870384,24.9227,102.485,52.34,72,0,2.26,clear sky
663,663,Marfino,RU,1667870384,55.7028,37.3822,37.54,92,100,8.95,light intensity drizzle
664,664,Inírida,CO,1667870385,3.8653,-67.9239,74.48,92,95,2.24,moderate rain
665,665,Vangaindrano,MG,1667870385,-23.35,47.6,70.21,93,100,6.26,overcast clouds
666,666,Kitzingen,DE,1667870386,49.7333,10.1667,49.62,89,15,5.75,few clouds
667,667,Atamanskaya,RU,1667870386,46.1773,39.6358,35.91,77,100,13.87,overcast clouds
668,668,Ahipara,NZ,1667870387,-35.1667,173.1667,61.18,91,90,14.52,overcast clouds
669,669,Harper,LR,1667870387,4.375,-7.7169,78.49,83,100,6.11,overcast clouds
670,670,Riyadh,SA,1667870388,24.6877,46.7219,66.34,61,0,3.51,clear sky
671,671,Rabo De Peixe,PT,1667870388,37.8,-25.5833,60.31,97,20,5.75,few clouds
672,672,Santiago De Compostela,ES,1667870389,42.8805,-8.5457,56.98,93,75,11.5,light intensity shower rain
673,673,Caohe,CN,1667870389,30.2297,115.4335,66.49,42,5,3.47,clear sky
674,674,Braniewo,PL,1667870390,54.3797,19.8196,49.01,88,100,15.7,overcast clouds
675,675,Ulkan,RU,1667870390,57.243,107.3223,23.05,83,100,12.39,overcast clouds
676,676,Golden,US,1667870325,39.7555,-105.2211,53.2,58,40,5.75,scattered clouds
677,677,Manta,EC,1667870391,-0.95,-80.7333,71.38,83,40,8.05,scattered clouds
678,678,Paka,MY,1667870391,4.6374,103.4368,78.39,94,40,0.0,scattered clouds
679,679,Ouallam,NE,1667870392,14.3188,2.0866,76.5,13,9,10.98,clear sky
680,680,College,US,1667870393,64.8569,-147.8028,19.8,71,100,0.0,overcast clouds
681,681,Omsukchan,RU,1667870393,62.5333,155.8,10.51,93,100,4.29,overcast clouds
682,682,Pahrump,US,1667870364,36.2083,-115.9839,64.26,45,100,7.0,overcast clouds
683,683,Bambous Virieux,MU,1667870242,-20.3428,57.7575,73.65,83,40,6.91,scattered clouds
684,684,Qui Nhon,VN,1667870304,13.7667,109.2333,75.69,81,100,11.59,overcast clouds
685,685,Stepnyak,KZ,1667870394,52.8339,70.7803,23.18,92,84,3.51,broken clouds
686,686,Zhuhai,CN,1667870395,22.2769,113.5678,69.58,94,40,16.11,scattered clouds
687,687,Conceição Da Barra,BR,1667870395,-18.5933,-39.7322,69.39,75,100,5.01,overcast clouds
688,688,Fairbanks,US,1667870396,64.8378,-147.7164,19.81,77,100,0.0,overcast clouds
689,689,Ribas Do Rio Pardo,BR,1667870396,-20.4431,-53.7592,66.74,44,7,6.31,clear sky
690,690,Gao,ML,1667870397,16.6362,1.637,72.0,15,26,12.44,scattered clouds
691,691,Ghanzi,BW,1667870397,-21.5667,21.7833,62.1,89,0,5.19,clear sky
692,692,Dabakala,CI,1667870398,8.3667,-4.4333,74.37,75,75,0.83,broken clouds
693,693,Kindu,CD,1667870398,-2.95,25.95,69.42,93,100,1.28,light rain
694,694,São João Da Barra,BR,1667870398,-21.6403,-41.0511,70.38,74,100,4.43,overcast clouds
695,695,Teahupoo,PF,1667870399,-17.8333,-149.2667,76.96,84,31,13.27,scattered clouds
696,696,Gambēla,ET,1667870400,8.25,34.5833,74.41,65,100,3.53,overcast clouds
697,697,Damietta,EG,1667870400,31.4165,31.8133,68.25,72,34,14.54,light rain
698,698,Tambopata,PE,1667870401,-12.7333,-69.1833,77.5,50,77,2.24,broken clouds
699,699,Chadiza,ZM,1667870431,-14.0678,32.4392,69.01,61,100,0.63,overcast clouds
700,700,Langxiang,CN,1667870432,46.95,128.8833,35.08,50,74,4.59,broken clouds
701,701,Birao,CF,1667870432,10.2849,22.7882,76.66,28,80,5.1,broken clouds
702,702,Kholodnyy,RU,1667870433,62.7167,147.95,-4.9,95,99,2.08,overcast clouds
703,703,Kununurra,AU,1667870433,-15.7667,128.7333,96.78,36,50,5.75,scattered clouds
704,704,Maple Creek,CA,1667870434,49.9168,-109.4848,16.21,86,100,5.75,overcast clouds
705,705,Charters Towers,AU,1667870434,-20.1,146.2667,84.79,36,0,9.86,clear sky
